$GPRMC,230022.00,A,4305.00027,N,07740.25171,W,0.230,,191122,,,D*6C
$GPVTG,,T,,M,0.230,N,0.426,K,D*27
$GPGGA,230022.00,4305.00027,N,07740.25171,W,2,03,12.66,127.0,M,-35.0,M,,0000*50
$GPGSA,A,2,09,04,07,,,,,,,,,,12.70,12.66,1.00*0F
$GPGSV,2,1,06,04,49,203,32,07,33,303,31,09,53,267,41,16,52,052,19*76
$GPGSV,2,2,06,46,19,241,36,48,22,238,39*78
$GPGLL,4305.00027,N,07740.25171,W,230022.00,A,D*7C
$GPTXT,01,01,02,u-blox ag - www.u-blox.com*50
$GPTXT,01,01,02,HW  UBX-G70xx   00070000 FF7FFFFFo*69
$GPTXT,01,01,02,ROM CORE 1.00 (59842) Jun 27 2012 17:43:52*59
$GPTXT,01,01,02,PROTVER 14.00*1E
$GPTXT,01,01,02,ANTSUPERV=AC SD PDoS SR*20
$GPTXT,01,01,02,ANTSTATUS=OK*3B
$GPTXT,01,01,02,LLC FFFFFFFF-FFFFFFFF-FFFFFFFF-FFFFFFFF-FFFFFFFD*2C
$GPRMC,230023.00,A,4305.00036,N,07740.25147,W,0.346,,191122,,,D*68
$GPVTG,,T,,M,0.346,N,0.640,K,D*25
$GPGGA,230023.00,4305.00036,N,07740.25147,W,2,03,12.65,128.0,M,-35.0,M,,0000*58
$GPGSA,A,2,09,04,07,,,,,,,,,,12.69,12.65,1.00*04
$GPGSV,2,1,06,04,49,203,31,07,33,303,31,09,53,267,41,16,52,052,18*74
$GPGSV,2,2,06,46,19,241,36,48,22,238,39*78
$GPGLL,4305.00036,N,07740.25147,W,230023.00,A,D*78
$GPRMC,230024.00,A,4305.00019,N,07740.25183,W,0.480,,191122,,,D*67
$GPVTG,,T,,M,0.480,N,0.888,K,D*22
$GPGGA,230024.00,4305.00019,N,07740.25183,W,2,03,12.64,127.1,M,-35.0,M,,0000*55
$GPGSA,A,2,09,04,07,,,,,,,,,,12.68,12.64,1.00*04
$GPGSV,2,1,06,04,49,203,31,07,33,303,30,09,53,267,42,16,52,052,17*79
$GPGSV,2,2,06,46,19,241,35,48,22,238,39*7B
$GPGLL,4305.00019,N,07740.25183,W,230024.00,A,D*7A
$GPRMC,230025.00,A,4305.00005,N,07740.25206,W,0.363,,191122,,,D*6F
$GPVTG,,T,,M,0.363,N,0.673,K,D*22
$GPGGA,230025.00,4305.00005,N,07740.25206,W,2,03,12.63,125.8,M,-35.0,M,,0000*5B
$GPGSA,A,2,09,04,07,,,,,,,,,,12.67,12.63,1.00*0C
$GPGSV,2,1,06,04,49,203,31,07,33,303,31,09,53,267,42,16,52,052,14*7B
$GPGSV,2,2,06,46,19,241,35,48,22,238,39*7B
$GPGLL,4305.00005,N,07740.25206,W,230025.00,A,D*78
$GPRMC,230026.00,A,4305.00007,N,07740.25183,W,0.596,,191122,,,D*6C
$GPVTG,,T,,M,0.596,N,1.103,K,D*2F
$GPGGA,230026.00,4305.00007,N,07740.25183,W,2,03,12.62,125.4,M,-35.0,M,,0000*59
$GPGSA,A,2,09,04,07,,,,,,,,,,12.66,12.62,1.00*0C
$GPGSV,2,1,06,04,49,203,32,07,33,303,30,09,53,267,42,16,52,052,14*79
$GPGSV,2,2,06,46,19,241,35,48,22,238,39*7B
$GPGLL,4305.00007,N,07740.25183,W,230026.00,A,D*77
$GPRMC,230027.00,A,4304.99995,N,07740.25191,W,0.361,,191122,,,D*63
$GPVTG,,T,,M,0.361,N,0.669,K,D*2B
$GPGGA,230027.00,4304.99995,N,07740.25191,W,2,03,12.61,125.8,M,-35.0,M,,0000*57
$GPGSA,A,2,09,04,07,,,,,,,,,,12.65,12.61,1.00*0C
$GPGSV,2,1,06,04,49,203,32,07,33,303,30,09,53,267,42,16,52,052,13*7E
$GPGSV,2,2,06,46,19,241,36,48,22,238,39*78
$GPGLL,4304.99995,N,07740.25191,W,230027.00,A,D*76
$GPRMC,230028.00,A,4305.00002,N,07740.25166,W,0.216,,191122,,,D*63
$GPVTG,,T,,M,0.216,N,0.400,K,D*27
$GPGGA,230028.00,4305.00002,N,07740.25166,W,2,03,12.60,126.2,M,-35.0,M,,0000*5E
$GPGSA,A,2,09,04,07,,,,,,,,,,12.64,12.60,1.00*0C
$GPGSV,2,1,06,04,49,203,32,07,33,303,29,09,53,267,42,16,52,052,18*7D
$GPGSV,2,2,06,46,19,241,36,48,22,238,38*79
$GPGLL,4305.00002,N,07740.25166,W,230028.00,A,D*77
$GPRMC,230029.00,A,4305.00004,N,07740.25151,W,1.014,,191122,,,D*61
$GPVTG,,T,,M,1.014,N,1.879,K,D*25
$GPGGA,230029.00,4305.00004,N,07740.25151,W,2,03,12.59,125.7,M,-35.0,M,,0000*51
$GPGSA,A,2,09,04,07,,,,,,,,,,12.63,12.59,1.00*01
$GPGSV,2,1,06,04,49,203,32,07,33,303,27,09,53,267,42,16,52,052,19*72
$GPGSV,2,2,06,46,19,241,35,48,22,238,39*7B
$GPGLL,4305.00004,N,07740.25151,W,230029.00,A,D*74
$GPRMC,230030.00,A,4304.99994,N,07740.25166,W,0.999,,191122,,,D*61
$GPVTG,,T,,M,0.999,N,1.850,K,D*23
$GPGGA,230030.00,4304.99994,N,07740.25166,W,2,03,12.58,125.8,M,-35.0,M,,0000*52
$GPGSA,A,2,09,04,07,,,,,,,,,,12.62,12.58,1.00*01
$GPGSV,2,1,06,04,49,203,32,07,33,303,26,09,53,267,42,16,52,052,20*79
$GPGSV,2,2,06,46,19,241,35,48,22,238,38*7A
$GPGLL,4304.99994,N,07740.25166,W,230030.00,A,D*79
$GPRMC,230031.00,A,4304.99988,N,07740.25176,W,0.153,,191122,,,D*62
$GPVTG,,T,,M,0.153,N,0.284,K,D*2F
$GPGGA,230031.00,4304.99988,N,07740.25176,W,2,03,12.57,125.6,M,-35.0,M,,0000*5E
$GPGSA,A,2,09,04,07,,,,,,,,,,12.61,12.57,1.00*0D
$GPGSV,2,1,06,04,49,203,32,07,33,303,24,09,53,267,42,16,52,052,21*7A
$GPGSV,2,2,06,46,19,241,34,48,22,238,39*7A
$GPGLL,4304.99988,N,07740.25176,W,230031.00,A,D*74
$GPRMC,230032.00,A,4304.99973,N,07740.25210,W,0.575,,191122,,,D*66
$GPVTG,,T,,M,0.575,N,1.066,K,D*20
$GPGGA,230032.00,4304.99973,N,07740.25210,W,2,03,12.56,124.7,M,-35.0,M,,0000*5B
$GPGSA,A,2,09,04,07,,,,,,,,,,12.60,12.56,1.00*0D
$GPGSV,2,1,06,04,49,203,32,07,33,303,22,09,53,267,42,16,52,052,22*7F
$GPGSV,2,2,06,46,19,241,35,48,22,238,39*7B
$GPGLL,4304.99973,N,07740.25210,W,230032.00,A,D*70
$GPRMC,230033.00,A,4304.99968,N,07740.25227,W,0.198,,191122,,,D*6E
$GPVTG,,T,,M,0.198,N,0.366,K,D*25
$GPGGA,230033.00,4304.99968,N,07740.25227,W,2,03,12.55,125.8,M,-35.0,M,,0000*59
$GPGSA,A,2,09,04,07,,,,,,,,,,12.59,12.55,1.00*04
$GPGSV,2,1,06,04,49,203,33,07,33,303,20,09,53,267,41,16,52,052,23*7E
$GPGSV,2,2,06,46,19,241,34,48,22,238,39*7A
$GPGLL,4304.99968,N,07740.25227,W,230033.00,A,D*7F
$GPRMC,230034.00,V,,,,,,,191122,,,N*73
$GPVTG,,,,,,,,,N*30
$GPGGA,230034.00,,,,,0,05,4.97,,,,,,0000*5F
$GPGSA,A,1,48,09,04,07,46,,,,,,,,7.03,4.97,4.97*00
$GPGSV,2,1,06,04,49,203,32,07,34,303,18,09,53,267,40,16,52,052,26*77
$GPGSV,2,2,06,46,19,241,33,48,22,238,39*7D
$GPGLL,,,,,230034.00,V,N*4C
$GPRMC,230035.00,V,,,,,,,191122,,,N*72
$GPVTG,,,,,,,,,N*30
$GPGGA,230035.00,,,,,0,05,4.97,,,,,,0000*5E
$GPGSA,A,1,48,09,04,07,46,,,,,,,,7.03,4.97,4.97*00
$GPGSV,2,1,06,04,49,203,31,07,34,303,14,09,53,267,41,16,52,052,25*7A
$GPGSV,2,2,06,46,19,241,33,48,22,238,39*7D
$GPGLL,,,,,230035.00,V,N*4D
$GPRMC,230036.00,V,,,,,,,191122,,,N*71
$GPVTG,,,,,,,,,N*30
$GPGGA,230036.00,,,,,0,05,4.97,,,,,,0000*5D
$GPGSA,A,1,48,09,04,07,46,,,,,,,,7.03,4.97,4.97*00
$GPGSV,2,1,06,04,49,203,31,07,34,303,11,09,53,267,41,16,52,052,25*7F
$GPGSV,2,2,06,46,19,241,34,48,22,238,39*7A
$GPGLL,,,,,230036.00,V,N*4E
$GPRMC,230037.00,V,,,,,,,191122,,,N*70
$GPVTG,,,,,,,,,N*30
$GPGGA,230037.00,,,,,0,05,4.97,,,,,,0000*5C
$GPGSA,A,1,48,09,04,07,46,,,,,,,,7.03,4.97,4.97*00
$GPGSV,2,1,06,04,49,203,30,07,34,303,15,09,53,267,40,16,52,052,25*7B
$GPGSV,2,2,06,46,19,241,34,48,22,238,39*7A
$GPGLL,,,,,230037.00,V,N*4F
$GPRMC,230038.00,V,,,,,,,191122,,,N*7F
$GPVTG,,,,,,,,,N*30
$GPGGA,230038.00,,,,,0,05,4.97,,,,,,0000*53
$GPGSA,A,1,48,09,04,07,46,,,,,,,,7.03,4.97,4.97*00
$GPGSV,2,1,06,04,49,203,30,07,34,303,14,09,53,267,41,16,52,052,25*7B
$GPGSV,2,2,06,46,19,241,34,48,22,238,39*7A
$GPGLL,,,,,230038.00,V,N*40
$GPRMC,230039.00,V,,,,,,,191122,,,N*7E
$GPVTG,,,,,,,,,N*30
$GPGGA,230039.00,,,,,0,05,4.97,,,,,,0000*52
$GPGSA,A,1,48,09,04,07,46,,,,,,,,7.02,4.97,4.97*01
$GPGSV,2,1,06,04,49,203,29,07,34,303,18,09,53,267,41,16,52,052,24*7E
$GPGSV,2,2,06,46,19,241,33,48,22,238,39*7D
$GPGLL,,,,,230039.00,V,N*41
$GPRMC,230040.00,A,4305.01178,N,07740.20995,W,4.604,237.31,191122,,,D*78
$GPVTG,237.31,T,,M,4.604,N,8.526,K,D*33
$GPGGA,230040.00,4305.01178,N,07740.20995,W,2,05,4.97,225.0,M,-35.0,M,,0000*67
$GPGSA,A,3,48,09,04,07,46,,,,,,,,7.02,4.97,4.97*03
$GPGSV,2,1,06,04,49,203,28,07,34,303,21,09,53,267,41,16,52,052,23*72
$GPGSV,2,2,06,46,19,241,33,48,22,238,39*7D
$GPGLL,4305.01178,N,07740.20995,W,230040.00,A,D*75
$GPRMC,230041.00,A,4305.01234,N,07740.20726,W,3.752,236.94,191122,,,D*7F
$GPVTG,236.94,T,,M,3.752,N,6.948,K,D*32
$GPGGA,230041.00,4305.01234,N,07740.20726,W,2,05,4.96,222.4,M,-35.0,M,,0000*69
$GPGSA,A,3,48,09,04,07,46,,,,,,,,7.02,4.96,4.97*02
$GPGSV,2,1,06,04,49,203,27,07,34,303,23,09,53,267,41,16,52,052,23*7F
$GPGSV,2,2,06,46,19,241,33,48,22,238,39*7D
$GPGLL,4305.01234,N,07740.20726,W,230041.00,A,D*79
$GPRMC,230042.00,A,4305.01328,N,07740.20414,W,2.445,237.46,191122,,,D*78
$GPVTG,237.46,T,,M,2.445,N,4.528,K,D*30
$GPGGA,230042.00,4305.01328,N,07740.20414,W,2,05,4.96,218.8,M,-35.0,M,,0000*61
$GPGSA,A,3,48,09,04,07,46,,,,,,,,7.02,4.96,4.96*03
$GPGSV,2,1,06,04,49,203,28,07,34,303,25,09,53,267,42,16,52,052,23*75
$GPGSV,2,2,06,46,19,241,33,48,22,238,40*73
$GPGLL,4305.01328,N,07740.20414,W,230042.00,A,D*74
$GPRMC,230043.00,A,4305.01438,N,07740.20102,W,1.812,,191122,,,D*6A
$GPVTG,,T,,M,1.812,N,3.356,K,D*2F
$GPGGA,230043.00,4305.01438,N,07740.20102,W,2,05,4.96,214.8,M,-35.0,M,,0000*68
$GPGSA,A,3,48,09,04,07,46,,,,,,,,7.02,4.96,4.96*03
$GPGSV,2,1,06,04,49,203,28,07,34,303,26,09,53,267,42,16,52,052,22*77
$GPGSV,2,2,06,46,19,241,34,48,22,238,39*7A
$GPGLL,4305.01438,N,07740.20102,W,230043.00,A,D*71
$GPRMC,230044.00,A,4305.01605,N,07740.19778,W,0.869,,191122,,,D*6D
$GPVTG,,T,,M,0.869,N,1.610,K,D*27
$GPGGA,230044.00,4305.01605,N,07740.19778,W,2,05,4.96,209.5,M,-35.0,M,,0000*63
$GPGSA,A,3,48,09,04,07,46,,,,,,,,7.02,4.96,4.96*03
$GPGSV,2,1,06,04,49,203,28,07,34,303,26,09,53,267,42,16,52,052,23*76
$GPGSV,2,2,06,46,19,241,35,48,22,238,38*7A
$GPGLL,4305.01605,N,07740.19778,W,230044.00,A,D*7B
$GPRMC,230045.00,A,4305.01722,N,07740.19524,W,0.521,,191122,,,D*62
$GPVTG,,T,,M,0.521,N,0.964,K,D*2B
$GPGGA,230045.00,4305.01722,N,07740.19524,W,2,05,4.96,205.2,M,-35.0,M,,0000*66
$GPGSA,A,3,48,09,04,07,46,,,,,,,,7.02,4.96,4.96*03
$GPGSV,2,1,06,04,49,203,28,07,34,303,26,09,53,267,43,16,52,052,22*76
$GPGSV,2,2,06,46,19,241,34,48,22,238,38*7B
$GPGLL,4305.01722,N,07740.19524,W,230045.00,A,D*75
$GPRMC,230046.00,A,4305.01839,N,07740.19236,W,0.037,,191122,,,D*62
$GPVTG,,T,,M,0.037,N,0.068,K,D*2C
$GPGGA,230046.00,4305.01839,N,07740.19236,W,2,05,4.96,200.7,M,-35.0,M,,0000*64
$GPGSA,A,3,48,09,04,07,46,,,,,,,,7.02,4.96,4.96*03
$GPGSV,2,1,06,04,49,203,28,07,34,303,28,09,53,267,43,16,52,052,20*7A
$GPGSV,2,2,06,46,19,241,34,48,22,238,38*7B
$GPGLL,4305.01839,N,07740.19236,W,230046.00,A,D*77
$GPRMC,230047.00,A,4305.01932,N,07740.19005,W,0.279,,191122,,,D*63
$GPVTG,,T,,M,0.279,N,0.517,K,D*29
$GPGGA,230047.00,4305.01932,N,07740.19005,W,2,05,4.96,196.9,M,-35.0,M,,0000*6F
$GPGSA,A,3,48,09,04,07,46,,,,,,,,7.01,4.96,4.96*00
$GPGSV,2,1,07,04,49,203,28,05,,,26,07,34,303,29,09,53,267,43*4E
$GPGSV,2,2,07,16,52,052,19,46,19,241,34,48,22,238,38*45
$GPGLL,4305.01932,N,07740.19005,W,230047.00,A,D*7E
$GPRMC,230048.00,A,4305.02066,N,07740.18688,W,0.290,,191122,,,D*62
$GPVTG,,T,,M,0.290,N,0.536,K,D*2D
$GPGGA,230048.00,4305.02066,N,07740.18688,W,2,05,4.96,192.1,M,-35.0,M,,0000*65
$GPGSA,A,3,48,09,04,07,46,,,,,,,,7.01,4.96,4.96*00
$GPGSV,2,1,07,04,49,203,28,05,,,25,07,34,303,29,09,53,267,43*4D
$GPGSV,2,2,07,16,52,052,19,46,19,241,35,48,22,238,38*44
$GPGLL,4305.02066,N,07740.18688,W,230048.00,A,D*78
$GPRMC,230049.00,A,4305.02247,N,07740.18295,W,0.140,,191122,,,D*64
$GPVTG,,T,,M,0.140,N,0.259,K,D*2D
$GPGGA,230049.00,4305.02247,N,07740.18295,W,2,05,4.96,186.1,M,-35.0,M,,0000*68
$GPGSA,A,3,48,09,04,07,46,,,,,,,,7.01,4.96,4.96*00
$GPGSV,2,1,08,04,49,203,28,05,,,23,07,34,303,29,08,,,23*76
$GPGSV,2,2,08,09,53,267,42,16,52,052,19,46,19,241,36,48,22,238,38*72
$GPGLL,4305.02247,N,07740.18295,W,230049.00,A,D*70
$GPRMC,230050.00,A,4305.02310,N,07740.18122,W,0.050,,191122,,,D*60
$GPVTG,,T,,M,0.050,N,0.093,K,D*29
$GPGGA,230050.00,4305.02310,N,07740.18122,W,2,05,4.95,183.6,M,-35.0,M,,0000*6D
$GPGSA,A,3,48,09,04,07,46,,,,,,,,7.01,4.95,4.96*03
$GPGSV,2,1,06,04,49,203,28,07,34,303,28,09,53,267,43,16,52,052,19*70
$GPGSV,2,2,06,46,19,241,35,48,22,238,38*7A
$GPGLL,4305.02310,N,07740.18122,W,230050.00,A,D*74
$GPRMC,230051.00,A,4305.02323,N,07740.18030,W,0.173,,191122,,,D*63
$GPVTG,,T,,M,0.173,N,0.321,K,D*23
$GPGGA,230051.00,4305.02323,N,07740.18030,W,2,05,4.95,182.4,M,-35.0,M,,0000*6D
$GPGSA,A,3,48,09,04,07,46,,,,,,,,7.01,4.95,4.96*03
$GPGSV,2,1,06,04,49,203,28,07,34,303,28,09,53,267,43,16,52,052,20*7A
$GPGSV,2,2,06,46,19,241,34,48,22,238,38*7B
$GPGLL,4305.02323,N,07740.18030,W,230051.00,A,D*77
$GPRMC,230052.00,A,4305.02364,N,07740.17897,W,0.562,,191122,,,D*6D
$GPVTG,,T,,M,0.562,N,1.042,K,D*20
$GPGGA,230052.00,4305.02364,N,07740.17897,W,2,05,4.95,180.6,M,-35.0,M,,0000*67
$GPGSA,A,3,48,09,04,07,46,,,,,,,,7.01,4.95,4.96*03
$GPGSV,2,1,06,04,49,203,27,07,34,303,28,09,53,267,43,16,52,052,19*7F
$GPGSV,2,2,06,46,19,241,35,48,22,238,38*7A
$GPGLL,4305.02364,N,07740.17897,W,230052.00,A,D*7D
$GPRMC,230053.00,A,4305.02397,N,07740.17773,W,0.558,,191122,,,D*6C
$GPVTG,,T,,M,0.558,N,1.033,K,D*2F
$GPGGA,230053.00,4305.02397,N,07740.17773,W,2,05,4.95,178.9,M,-35.0,M,,0000*67
$GPGSA,A,3,48,09,04,07,46,,,,,,,,7.01,4.95,4.96*03
$GPGSV,2,1,06,04,49,203,27,07,34,303,26,09,53,267,43,16,52,052,20*7B
$GPGSV,2,2,06,46,19,241,35,48,22,238,38*7A
$GPGLL,4305.02397,N,07740.17773,W,230053.00,A,D*75
$GPRMC,230054.00,A,4305.02427,N,07740.17671,W,0.142,,191122,,,D*6B
$GPVTG,,T,,M,0.142,N,0.263,K,D*26
$GPGGA,230054.00,4305.02427,N,07740.17671,W,2,05,4.95,177.4,M,-35.0,M,,0000*6D
$GPGSA,A,3,48,09,04,07,46,,,,,,,,7.01,4.95,4.96*03
$GPGSV,2,1,06,04,49,203,28,07,34,303,24,09,53,267,43,16,52,052,20*76
$GPGSV,2,2,06,46,19,241,36,48,22,238,38*79
$GPGLL,4305.02427,N,07740.17671,W,230054.00,A,D*7D
$GPRMC,230055.00,A,4305.02448,N,07740.17612,W,0.097,,191122,,,D*6F
$GPVTG,,T,,M,0.097,N,0.181,K,D*20
$GPGGA,230055.00,4305.02448,N,07740.17612,W,2,05,4.95,176.3,M,-35.0,M,,0000*66
$GPGSA,A,3,48,09,04,07,46,,,,,,,,7.01,4.95,4.96*03
$GPGSV,2,1,06,04,49,203,29,07,34,303,21,09,53,267,43,16,52,052,20*72
$GPGSV,2,2,06,46,19,241,35,48,22,238,38*7A
$GPGLL,4305.02448,N,07740.17612,W,230055.00,A,D*70
