$GPTXT,01,01,02,ANTSTATUS=OK*3B

$GPRMC,234006.00,V,,,,,,,301022,,,N*7C

$GPVTG,,,,,,,,,N*30

$GPGGA,234006.00,,,,,0,00,99.99,,,,,,*65

$GPGSA,A,1,,,,,,,,,,,,,99.99,99.99,99.99*30

$GPGSV,3,1,11,03,01,214,,04,66,227,,07,18,295,,08,28,180,*76

$GPGSV,3,2,11,09,47,296,,16,70,043,,18,06,060,,26,39,058,*72

$GPGSV,3,3,11,27,51,144,,28,26,056,,31,10,105,*43

$GPGLL,,,,,234006.00,V,N*49

$GPTXT,01,01,02,u-blox ag - www.u-blox.com*50

$GPTXT,01,01,02,HW  UBX-G70xx   00070000 FF7FFFFFo*69

$GPTXT,01,01,02,ROM CORE 1.00 (59842) Jun 27 2012 17:43:52*59

$GPTXT,01,01,02,PROTVER 14.00*1E

$GPTXT,01,01,02,ANTSUPERV=AC SD PDoS SR*20

$GPTXT,01,01,02,ANTSTATUS=OK*3B

$GPTXT,01,01,02,LLC FFFFFFFF-FFFFFFFF-FFFFFFFF-FFFFFFFF-FFFFFFFD*2C

$GPRMC,234007.00,V,,,,,,,301022,,,N*7D

$GPVTG,,,,,,,,,N*30

$GPGGA,234007.00,,,,,0,00,99.99,,,,,,*64

$GPGSA,A,1,,,,,,,,,,,,,99.99,99.99,99.99*30

$GPGSV,3,1,11,03,01,214,,04,66,227,,07,18,295,,08,28,180,*76

$GPGSV,3,2,11,09,47,296,,16,70,043,,18,06,060,,26,39,058,*72

$GPGSV,3,3,11,27,51,144,,28,26,056,,31,10,105,*43

$GPGLL,,,,,234007.00,V,N*48

$GPRMC,234008.00,V,,,,,,,301022,,,N*72

$GPVTG,,,,,,,,,N*30

$GPGGA,234008.00,,,,,0,00,99.99,,,,,,*6B

$GPGSA,A,1,,,,,,,,,,,,,99.99,99.99,99.99*30

$GPGSV,3,1,11,03,01,214,,04,66,227,,07,18,295,,08,28,180,*76

$GPGSV,3,2,11,09,47,296,,16,70,043,,18,06,060,,26,39,058,*72

$GPGSV,3,3,11,27,51,144,,28,26,056,,31,10,105,*43

$GPGLL,,,,,234008.00,V,N*47

$GPRMC,234009.00,V,,,,,,,301022,,,N*73

$GPVTG,,,,,,,,,N*30

$GPGGA,234009.00,,,,,0,00,99.99,,,,,,*6A

$GPGSA,A,1,,,,,,,,,,,,,99.99,99.99,99.99*30

$GPGSV,3,1,11,03,01,214,,04,66,227,,07,18,295,,08,28,180,*76

$GPGSV,3,2,11,09,47,296,,16,70,043,,18,06,060,,26,39,058,*72

$GPGSV,3,3,11,27,51,144,,28,26,056,,31,10,105,*43

$GPGLL,,,,,234009.00,V,N*46

$GPRMC,234010.00,V,,,,,,,301022,,,N*7B

$GPVTG,,,,,,,,,N*30

$GPGGA,234010.00,,,,,0,00,99.99,,,,,,*62

$GPGSA,A,1,,,,,,,,,,,,,99.99,99.99,99.99*30

$GPGSV,3,1,11,03,01,214,,04,66,227,,07,18,295,,08,28,180,*76

$GPGSV,3,2,11,09,47,296,,16,70,043,,18,06,060,,26,39,058,*72

$GPGSV,3,3,11,27,51,144,,28,26,056,,31,10,105,*43

$GPGLL,,,,,234010.00,V,N*4E

$GPRMC,234011.00,V,,,,,,,301022,,,N*7A

$GPVTG,,,,,,,,,N*30

$GPGGA,234011.00,,,,,0,00,99.99,,,,,,*63

$GPGSA,A,1,,,,,,,,,,,,,99.99,99.99,99.99*30

$GPGSV,3,1,11,03,01,214,,04,66,227,,07,18,295,,08,28,180,*76

$GPGSV,3,2,11,09,47,296,,16,70,043,,18,06,060,,26,39,058,*72

$GPGSV,3,3,11,27,51,144,,28,26,056,,31,10,105,*43

$GPGLL,,,,,234011.00,V,N*4F

$GPRMC,234012.00,V,,,,,,,301022,,,N*79

$GPVTG,,,,,,,,,N*30

$GPGGA,234012.00,,,,,0,00,99.99,,,,,,*60

$GPGSA,A,1,,,,,,,,,,,,,99.99,99.99,99.99*30

$GPGSV,3,1,11,03,01,214,,04,66,227,32,07,18,295,,08,28,180,*77

$GPGSV,3,2,11,09,47,296,,16,70,043,32,18,06,060,,26,39,058,*73

$GPGSV,3,3,11,27,51,144,,28,26,056,,31,10,105,*43

$GPGLL,,,,,234012.00,V,N*4C

$GPRMC,234013.00,V,,,,,,,301022,,,N*78

$GPVTG,,,,,,,,,N*30

$GPGGA,234013.00,,,,,0,00,99.99,,,,,,*61

$GPGSA,A,1,,,,,,,,,,,,,99.99,99.99,99.99*30

$GPGSV,3,1,11,03,01,214,,04,66,227,31,07,18,295,,08,28,180,*74

$GPGSV,3,2,11,09,47,296,,16,70,043,33,18,06,060,,26,39,058,23*73

$GPGSV,3,3,11,27,51,144,,28,26,056,22,31,10,105,*43

$GPGLL,,,,,234013.00,V,N*4D

$GPRMC,234014.00,V,,,,,,,301022,,,N*7F

$GPVTG,,,,,,,,,N*30

$GPGGA,234014.00,,,,,0,00,99.99,,,,,,*66

$GPGSA,A,1,,,,,,,,,,,,,99.99,99.99,99.99*30

$GPGSV,3,1,11,03,01,214,,04,66,227,30,07,18,295,20,08,28,180,*77

$GPGSV,3,2,11,09,47,296,,16,70,043,32,18,06,060,,26,39,058,23*72

$GPGSV,3,3,11,27,51,144,,28,26,056,22,31,10,105,*43

$GPGLL,,,,,234014.00,V,N*4A

$GPRMC,234015.00,V,,,,,,,301022,,,N*7E

$GPVTG,,,,,,,,,N*30

$GPGGA,234015.00,,,,,0,00,99.99,,,,,,*67

$GPGSA,A,1,,,,,,,,,,,,,99.99,99.99,99.99*30

$GPGSV,3,1,11,03,01,214,,04,66,227,30,07,18,295,19,08,28,180,*7D

$GPGSV,3,2,11,09,47,296,,16,70,043,32,18,06,060,,26,39,058,22*73

$GPGSV,3,3,11,27,51,144,,28,26,056,22,31,10,105,*43

$GPGLL,,,,,234015.00,V,N*4B

$GPRMC,234015.50,V,,,,,,,301022,,,N*7B

$GPVTG,,,,,,,,,N*30

$GPGGA,234015.50,,,,,0,03,10.70,,,,,,*67

$GPGSA,A,1,16,04,26,,,,,,,,,,10.74,10.70,1.00*02

$GPGSV,3,1,11,03,01,214,,04,66,227,30,07,18,295,20,08,28,180,*77

$GPGSV,3,2,11,09,47,296,,16,70,043,32,18,06,060,,26,39,058,22*73

$GPGSV,3,3,11,27,51,144,,28,26,056,22,31,10,105,*43

$GPGLL,,,,,234015.50,V,N*4E

$GPRMC,234016.00,V,,,,,,,301022,,,N*7D

$GPVTG,,,,,,,,,N*30

$GPGGA,234016.00,,,,,0,03,10.69,,,,,,*69

$GPGSA,A,1,16,04,26,,,,,,,,,,10.74,10.69,1.00*0A

$GPGSV,3,1,11,03,01,214,,04,66,227,30,07,18,295,19,08,28,180,*7D

$GPGSV,3,2,11,09,47,296,,16,70,043,32,18,06,060,,26,39,058,23*72

$GPGSV,3,3,11,27,51,144,,28,26,056,22,31,10,105,*43

$GPGLL,,,,,234016.00,V,N*48

$GPRMC,234017.00,V,,,,,,,301022,,,N*7C

$GPVTG,,,,,,,,,N*30

$GPGGA,234017.00,,,,,0,03,10.69,,,,,,*68

$GPGSA,A,1,16,04,26,,,,,,,,,,10.73,10.69,1.00*0D

$GPGSV,3,1,11,03,01,214,,04,66,227,29,07,18,295,19,08,28,180,*75

$GPGSV,3,2,11,09,47,296,,16,70,043,32,18,06,060,,26,39,058,23*72

$GPGSV,3,3,11,27,51,144,,28,26,056,22,31,10,105,*43

$GPGLL,,,,,234017.00,V,N*49

$GPRMC,234018.00,V,,,,,,,301022,,,N*73

$GPVTG,,,,,,,,,N*30

$GPGGA,234018.00,,,,,0,03,10.68,,,,,,*66

$GPGSA,A,1,16,04,26,,,,,,,,,,10.73,10.68,1.00*0C

$GPGSV,3,1,11,03,01,214,,04,66,227,29,07,18,295,19,08,28,180,*75

$GPGSV,3,2,11,09,47,296,,16,70,043,32,18,06,060,,26,39,058,22*73

$GPGSV,3,3,11,27,51,144,,28,26,056,22,31,10,105,*43

$GPGLL,,,,,234018.00,V,N*46

$GPRMC,234019.00,V,,,,,,,301022,,,N*72

$GPVTG,,,,,,,,,N*30

$GPGGA,234019.00,,,,,0,03,10.67,,,,,,*68

$GPGSA,A,1,16,04,26,,,,,,,,,,10.72,10.67,1.00*02

$GPGSV,3,1,11,03,01,214,,04,66,227,29,07,18,295,19,08,28,180,*75

$GPGSV,3,2,11,09,47,296,,16,70,043,32,18,06,060,,26,39,058,22*73

$GPGSV,3,3,11,27,51,144,,28,26,056,22,31,10,105,*43

$GPGLL,,,,,234019.00,V,N*47

$GPRMC,234020.00,V,,,,,,,301022,,,N*78

$GPVTG,,,,,,,,,N*30

$GPGGA,234020.00,,,,,0,03,10.66,,,,,,*63

$GPGSA,A,1,16,04,26,,,,,,,,,,10.71,10.66,1.00*00

$GPGSV,3,1,11,03,01,214,,04,66,227,29,07,18,295,18,08,28,180,*74

$GPGSV,3,2,11,09,47,296,,16,70,043,32,18,06,060,,26,39,058,23*72

$GPGSV,3,3,11,27,51,144,,28,26,056,22,31,10,105,*43

$GPGLL,,,,,234020.00,V,N*4D

$GPRMC,234021.00,V,,,,,,,301022,,,N*79

$GPVTG,,,,,,,,,N*30

$GPGGA,234021.00,,,,,0,03,10.66,,,,,,*62

$GPGSA,A,1,16,04,26,,,,,,,,,,10.70,10.66,1.00*01

$GPGSV,3,1,11,03,01,214,,04,66,227,29,07,18,295,18,08,28,180,*74

$GPGSV,3,2,11,09,47,296,,16,70,043,32,18,06,060,,26,39,058,24*75

$GPGSV,3,3,11,27,51,144,,28,26,056,22,31,10,105,*43

$GPGLL,,,,,234021.00,V,N*4C

$GPRMC,234022.00,V,,,,,,,301022,,,N*7A

$GPVTG,,,,,,,,,N*30

$GPGGA,234022.00,,,,,0,03,10.65,,,,,,*62

$GPGSA,A,1,16,04,26,,,,,,,,,,10.70,10.65,1.00*02

$GPGSV,3,1,11,03,01,214,,04,66,227,30,07,18,295,19,08,28,180,*7D

$GPGSV,3,2,11,09,47,296,,16,70,043,33,18,06,060,,26,39,058,24*74

$GPGSV,3,3,11,27,51,144,,28,26,056,23,31,10,105,*42

$GPGLL,,,,,234022.00,V,N*4F

$GPRMC,234023.00,V,,,,,,,301022,,,N*7B

$GPVTG,,,,,,,,,N*30

$GPGGA,234023.00,,,,,0,03,10.64,,,,,,*62

$GPGSA,A,1,16,04,26,,,,,,,,,,10.69,10.64,1.00*0B

$GPGSV,3,1,11,03,01,214,,04,66,227,30,07,18,295,18,08,28,180,*7C

$GPGSV,3,2,11,09,47,296,,16,70,043,32,18,06,060,,26,39,058,24*75

$GPGSV,3,3,11,27,51,144,,28,26,056,23,31,10,105,*42

$GPGLL,,,,,234023.00,V,N*4E

$GPRMC,234024.00,V,,,,,,,301022,,,N*7C

$GPVTG,,,,,,,,,N*30

$GPGGA,234024.00,,,,,0,03,10.64,,,,,,*65

$GPGSA,A,1,16,04,26,,,,,,,,,,10.68,10.64,1.00*0A

$GPGSV,3,1,11,03,01,214,,04,66,227,30,07,18,295,18,08,28,180,*7C

$GPGSV,3,2,11,09,47,296,,16,70,043,33,18,06,060,,26,39,058,25*75

$GPGSV,3,3,11,27,51,144,,28,26,056,23,31,10,105,*42

$GPGLL,,,,,234024.00,V,N*49

$GPRMC,234025.00,V,,,,,,,301022,,,N*7D

$GPVTG,,,,,,,,,N*30

$GPGGA,234025.00,,,,,0,03,10.63,,,,,,*63

$GPGSA,A,1,16,04,26,,,,,,,,,,10.68,10.63,1.00*0D

$GPGSV,3,1,11,03,01,214,,04,66,227,29,07,18,295,18,08,28,180,*74

$GPGSV,3,2,11,09,47,296,,16,70,043,32,18,06,060,,26,39,058,25*74

$GPGSV,3,3,11,27,51,144,,28,26,056,23,31,10,105,*42

$GPGLL,,,,,234025.00,V,N*48

$GPRMC,234026.00,V,,,,,,,301022,,,N*7E

$GPVTG,,,,,,,,,N*30

$GPGGA,234026.00,,,,,0,03,10.62,,,,,,*61

$GPGSA,A,1,16,04,26,,,,,,,,,,10.67,10.62,1.00*03

$GPGSV,3,1,11,03,01,214,,04,66,227,29,07,18,295,18,08,28,180,*74

$GPGSV,3,2,11,09,47,296,,16,70,043,32,18,06,060,,26,39,058,25*74

$GPGSV,3,3,11,27,51,144,18,28,26,056,23,31,10,105,*4B

$GPGLL,,,,,234026.00,V,N*4B

$GPRMC,234027.00,V,,,,,,,301022,,,N*7F

$GPVTG,,,,,,,,,N*30

$GPGGA,234027.00,,,,,0,03,10.61,,,,,,*63

$GPGSA,A,1,16,04,26,,,,,,,,,,10.66,10.61,1.00*01

$GPGSV,3,1,11,03,01,214,,04,66,227,29,07,18,295,18,08,28,180,*74

$GPGSV,3,2,11,09,47,296,,16,70,043,32,18,06,060,,26,39,058,25*74

$GPGSV,3,3,11,27,51,144,17,28,26,056,23,31,10,105,*44

$GPGLL,,,,,234027.00,V,N*4A

$GPRMC,234028.00,V,,,,,,,301022,,,N*70

$GPVTG,,,,,,,,,N*30

$GPGGA,234028.00,,,,,0,03,10.61,,,,,,*6C

$GPGSA,A,1,16,04,26,,,,,,,,,,10.65,10.61,1.00*02

$GPGSV,3,1,11,03,01,214,,04,66,227,29,07,18,295,18,08,28,180,*74

$GPGSV,3,2,11,09,47,296,,16,70,043,33,18,06,060,,26,39,058,25*75

$GPGSV,3,3,11,27,51,144,17,28,26,056,23,31,10,105,*44

$GPGLL,,,,,234028.00,V,N*45

$GPRMC,234029.00,V,,,,,,,301022,,,N*71

$GPVTG,,,,,,,,,N*30

$GPGGA,234029.00,,,,,0,03,10.60,,,,,,*6C

$GPGSA,A,1,16,04,26,,,,,,,,,,10.65,10.60,1.00*03

$GPGSV,3,1,11,03,01,214,,04,66,227,29,07,18,295,19,08,28,180,*75

$GPGSV,3,2,11,09,47,296,,16,70,043,32,18,06,060,,26,39,058,25*74

$GPGSV,3,3,11,27,51,144,15,28,26,056,23,31,10,105,*46

$GPGLL,,,,,234029.00,V,N*44

$GPRMC,234030.00,V,,,,,,,301022,,,N*79

$GPVTG,,,,,,,,,N*30

$GPGGA,234030.00,,,,,0,03,10.59,,,,,,*6E

$GPGSA,A,1,16,04,26,,,,,,,,,,10.64,10.59,1.00*08

$GPGSV,3,1,11,03,01,214,,04,66,227,29,07,18,295,18,08,28,180,*74

$GPGSV,3,2,11,09,47,296,,16,70,043,32,18,06,060,,26,39,058,25*74

$GPGSV,3,3,11,27,51,144,14,28,26,056,23,31,10,105,*47

$GPGLL,,,,,234030.00,V,N*4C

$GPRMC,234031.00,V,,,,,,,301022,,,N*78

$GPVTG,,,,,,,,,N*30

$GPGGA,234031.00,,,,,0,03,10.59,,,,,,*6F

$GPGSA,A,1,16,04,26,,,,,,,,,,10.63,10.59,1.00*0F

$GPGSV,3,1,11,03,01,214,,04,66,227,29,07,18,295,18,08,28,180,*74

$GPGSV,3,2,11,09,47,296,,16,70,043,33,18,06,060,,26,39,058,25*75

$GPGSV,3,3,11,27,51,144,15,28,26,056,24,31,10,105,*41

$GPGLL,,,,,234031.00,V,N*4D

$GPRMC,234032.00,V,,,,,,,301022,,,N*7B

$GPVTG,,,,,,,,,N*30

$GPGGA,234032.00,,,,,0,03,10.58,,,,,,*6D

$GPGSA,A,1,16,04,26,,,,,,,,,,10.63,10.58,1.00*0E

$GPGSV,3,1,11,03,01,214,,04,66,227,29,07,18,295,18,08,28,180,*74

$GPGSV,3,2,11,09,47,296,,16,70,043,33,18,06,060,,26,39,058,25*75

$GPGSV,3,3,11,27,51,144,15,28,26,056,23,31,10,105,*46

$GPGLL,,,,,234032.00,V,N*4E

$GPRMC,234033.00,V,,,,,,,301022,,,N*7A

$GPVTG,,,,,,,,,N*30

$GPGGA,234033.00,,,,,0,03,10.57,,,,,,*63

$GPGSA,A,1,16,04,26,,,,,,,,,,10.62,10.57,1.00*00

$GPGSV,3,1,11,03,01,214,,04,66,227,29,07,18,295,18,08,28,180,*74

$GPGSV,3,2,11,09,47,296,,16,70,043,33,18,06,060,,26,39,058,25*75

$GPGSV,3,3,11,27,51,144,15,28,26,056,23,31,10,105,*46

$GPGLL,,,,,234033.00,V,N*4F

$GPRMC,234034.00,V,,,,,,,301022,,,N*7D

$GPVTG,,,,,,,,,N*30

$GPGGA,234034.00,,,,,0,03,10.57,,,,,,*64

$GPGSA,A,1,16,04,26,,,,,,,,,,10.61,10.57,1.00*03

$GPGSV,3,1,11,03,01,214,,04,66,227,29,07,18,295,18,08,28,180,*74

$GPGSV,3,2,11,09,47,296,,16,70,043,33,18,06,060,,26,39,058,25*75

$GPGSV,3,3,11,27,51,144,16,28,26,056,23,31,10,105,*45

$GPGLL,,,,,234034.00,V,N*48

$GPRMC,234035.00,V,,,,,,,301022,,,N*7C

$GPVTG,,,,,,,,,N*30

$GPGGA,234035.00,,,,,0,04,3.09,,,,,,*5B

$GPGSA,A,1,16,04,27,26,,,,,,,,,7.52,3.09,6.86*00

$GPGSV,3,1,11,03,01,214,,04,66,227,28,07,18,295,17,08,28,180,*7A

$GPGSV,3,2,11,09,47,296,,16,70,043,32,18,06,060,,26,39,058,24*75

$GPGSV,3,3,11,27,51,144,15,28,26,056,23,31,10,105,*46

$GPGLL,,,,,234035.00,V,N*49

$GPRMC,234036.00,V,,,,,,,301022,,,N*7F

$GPVTG,,,,,,,,,N*30

$GPGGA,234036.00,,,,,0,04,3.09,,,,,,*58

$GPGSA,A,1,16,04,27,26,,,,,,,,,7.52,3.09,6.86*00

$GPGSV,3,1,11,03,01,214,,04,66,227,28,07,18,295,16,08,28,180,*7B

$GPGSV,3,2,11,09,47,296,,16,70,043,32,18,06,060,,26,39,058,24*75

$GPGSV,3,3,11,27,51,144,14,28,26,056,23,31,10,105,*47

$GPGLL,,,,,234036.00,V,N*4A

$GPRMC,234037.00,V,,,,,,,301022,,,N*7E

$GPVTG,,,,,,,,,N*30

$GPGGA,234037.00,,,,,0,04,3.09,,,,,,*59

$GPGSA,A,1,16,04,27,26,,,,,,,,,7.52,3.09,6.86*00

$GPGSV,3,1,11,03,01,214,,04,66,227,28,07,18,295,17,08,28,180,*7A

$GPGSV,3,2,11,09,47,296,,16,70,043,31,18,06,060,,26,39,058,24*76

$GPGSV,3,3,11,27,51,144,12,28,26,056,23,31,10,105,*41

$GPGLL,,,,,234037.00,V,N*4B

$GPRMC,234038.00,V,,,,,,,301022,,,N*71

$GPVTG,,,,,,,,,N*30

$GPGGA,234038.00,,,,,0,04,3.09,,,,,,*56

$GPGSA,A,1,16,04,27,26,,,,,,,,,7.52,3.09,6.85*03

$GPGSV,3,1,11,03,01,214,,04,66,226,28,07,18,295,18,08,28,180,*74

$GPGSV,3,2,11,09,47,296,18,16,70,043,32,18,06,060,,26,39,058,24*7C

$GPGSV,3,3,11,27,51,144,11,28,26,056,23,31,10,105,*42

$GPGLL,,,,,234038.00,V,N*44

$GPRMC,234039.00,V,,,,,,,301022,,,N*70

$GPVTG,,,,,,,,,N*30

$GPGGA,234039.00,,,,,0,04,3.09,,,,,,*57

$GPGSA,A,1,16,04,27,26,,,,,,,,,7.52,3.09,6.85*03

$GPGSV,3,1,11,03,01,214,,04,66,226,28,07,18,295,18,08,28,180,*74

$GPGSV,3,2,11,09,47,296,18,16,70,043,32,18,06,060,,26,39,058,25*7D

$GPGSV,3,3,11,27,51,144,14,28,26,056,23,31,10,105,*47

$GPGLL,,,,,234039.00,V,N*45

$GPRMC,234040.00,V,,,,,,,301022,,,N*7E

$GPVTG,,,,,,,,,N*30

$GPGGA,234040.00,,,,,0,04,3.09,,,,,,*59

$GPGSA,A,1,16,04,27,26,,,,,,,,,7.51,3.09,6.85*00

$GPGSV,3,1,11,03,01,214,,04,66,226,28,07,18,295,18,08,28,180,*74

$GPGSV,3,2,11,09,47,296,18,16,70,043,32,18,06,060,,26,39,058,25*7D

$GPGSV,3,3,11,27,51,144,15,28,26,056,23,31,10,105,*46

$GPGLL,,,,,234040.00,V,N*4B

$GPRMC,234041.00,V,,,,,,,301022,,,N*7F

$GPVTG,,,,,,,,,N*30

$GPGGA,234041.00,,,,,0,04,3.09,,,,,,*58

$GPGSA,A,1,16,04,27,26,,,,,,,,,7.51,3.09,6.85*00

$GPGSV,3,1,11,03,01,214,,04,66,226,29,07,18,295,18,08,28,180,*75

$GPGSV,3,2,11,09,47,296,17,16,70,043,32,18,06,060,,26,39,058,25*72

$GPGSV,3,3,11,27,51,144,17,28,26,056,22,31,10,105,*45

$GPGLL,,,,,234041.00,V,N*4A

$GPRMC,234042.00,A,4305.05910,N,07740.13063,W,0.079,,301022,,,A*61

$GPVTG,,T,,M,0.079,N,0.147,K,A*2F

$GPGGA,234042.00,4305.05910,N,07740.13063,W,1,05,1.69,176.1,M,-35.0,M,,*60

$GPGSA,A,3,16,04,27,09,26,,,,,,,,4.76,1.69,4.45*07

$GPGSV,3,1,11,03,01,214,,04,66,226,29,07,18,295,19,08,28,180,*74

$GPGSV,3,2,11,09,47,296,17,16,70,043,31,18,06,060,,26,39,058,25*71

$GPGSV,3,3,11,27,51,144,18,28,26,056,22,31,10,105,*4A
FIRST VALID FIX HERE-----------------------------------------------------------
$GPGLL,4305.05910,N,07740.13063,W,234042.00,A,A*74

$GPRMC,234043.00,A,4305.05806,N,07740.12886,W,0.248,,301022,,,A*64

$GPVTG,,T,,M,0.248,N,0.459,K,A*25

$GPGGA,234043.00,4305.05806,N,07740.12886,W,1,05,1.69,178.0,M,-35.0,M,,*6A

$GPGSA,A,3,16,04,27,09,26,,,,,,,,4.76,1.69,4.45*07

$GPGSV,3,1,11,03,01,214,,04,66,226,29,07,18,295,20,08,28,180,*7E

$GPGSV,3,2,11,09,48,296,18,16,70,043,32,18,06,060,,26,39,058,25*72

$GPGSV,3,3,11,27,51,144,17,28,26,056,23,31,10,105,*44

$GPGLL,4305.05806,N,07740.12886,W,234043.00,A,A*71

$GPRMC,234044.00,A,4305.05730,N,07740.12653,W,0.337,,301022,,,A*66

$GPVTG,,T,,M,0.337,N,0.624,K,A*24

$GPGGA,234044.00,4305.05730,N,07740.12653,W,1,05,1.69,179.7,M,-35.0,M,,*67

$GPGSA,A,3,16,04,27,09,26,,,,,,,,4.76,1.69,4.45*07

$GPGSV,3,1,11,03,01,214,,04,66,226,29,07,18,295,21,08,28,180,*7F

$GPGSV,3,2,11,09,48,296,19,16,70,043,31,18,06,060,,26,39,058,25*70

$GPGSV,3,3,11,27,51,144,17,28,26,056,24,31,10,105,*43

$GPGLL,4305.05730,N,07740.12653,W,234044.00,A,A*7A

$GPRMC,234045.00,A,4305.05660,N,07740.12590,W,0.369,,301022,,,A*64

$GPVTG,,T,,M,0.369,N,0.684,K,A*25

$GPGGA,234045.00,4305.05660,N,07740.12590,W,1,05,1.69,179.8,M,-35.0,M,,*61

$GPGSA,A,3,16,04,27,09,26,,,,,,,,4.76,1.69,4.45*07

$GPGSV,3,1,11,03,01,214,,04,66,226,28,07,18,295,21,08,28,180,*7E

$GPGSV,3,2,11,09,48,296,19,16,70,043,32,18,06,060,,26,39,058,25*73

$GPGSV,3,3,11,27,51,144,15,28,26,056,24,31,10,105,*41

$GPGLL,4305.05660,N,07740.12590,W,234045.00,A,A*73

$GPRMC,234046.00,A,4305.05649,N,07740.12578,W,0.903,,301022,,,A*6C

$GPVTG,,T,,M,0.903,N,1.672,K,A*2B

$GPGGA,234046.00,4305.05649,N,07740.12578,W,1,05,1.69,179.3,M,-35.0,M,,*64

$GPGSA,A,3,16,04,27,09,26,,,,,,,,4.76,1.69,4.45*07

$GPGSV,3,1,11,03,01,214,,04,66,226,28,07,18,295,20,08,28,180,*7F

$GPGSV,3,2,11,09,48,296,19,16,70,043,31,18,06,060,,26,39,058,25*70

$GPGSV,3,3,11,27,51,144,12,28,26,056,23,31,10,105,*41

$GPGLL,4305.05649,N,07740.12578,W,234046.00,A,A*7D

$GPRMC,234047.00,A,4305.05623,N,07740.12547,W,0.143,,301022,,,A*61

$GPVTG,,T,,M,0.143,N,0.266,K,A*27

$GPGGA,234047.00,4305.05623,N,07740.12547,W,1,04,2.89,178.9,M,-35.0,M,,*62

$GPGSA,A,3,16,04,09,26,,,,,,,,,5.94,2.89,5.19*0A

$GPGSV,3,1,11,03,01,214,,04,66,226,28,07,18,295,20,08,28,180,*7F

$GPGSV,3,2,11,09,48,296,19,16,70,043,31,18,06,060,,26,39,058,24*71

$GPGSV,3,3,11,27,51,144,09,28,26,056,23,31,10,105,*4B

$GPGLL,4305.05623,N,07740.12547,W,234047.00,A,A*7C

$GPRMC,234048.00,A,4305.05606,N,07740.12502,W,0.144,,301022,,,A*6F

$GPVTG,,T,,M,0.144,N,0.266,K,A*20

$GPGGA,234048.00,4305.05606,N,07740.12502,W,1,04,2.89,179.6,M,-35.0,M,,*65

$GPGSA,A,3,16,04,09,26,,,,,,,,,5.94,2.89,5.19*0A

$GPGSV,3,1,11,03,01,214,,04,66,226,28,07,18,295,21,08,28,180,*7E

$GPGSV,3,2,11,09,48,296,19,16,70,043,31,18,06,060,,26,39,058,24*71

$GPGSV,3,3,11,27,51,144,09,28,26,056,23,31,10,105,*4B

$GPGLL,4305.05606,N,07740.12502,W,234048.00,A,A*75

$GPRMC,234049.00,A,4305.05602,N,07740.12499,W,0.277,,301022,,,A*6A

$GPVTG,,T,,M,0.277,N,0.512,K,A*27

$GPGGA,234049.00,4305.05602,N,07740.12499,W,1,04,2.89,178.6,M,-35.0,M,,*62

$GPGSA,A,3,16,04,09,26,,,,,,,,,5.94,2.89,5.19*0A

$GPGSV,3,1,11,03,01,214,,04,66,226,28,07,18,295,21,08,28,180,*7E

$GPGSV,3,2,11,09,48,296,19,16,70,043,31,18,06,060,,26,39,058,25*70

$GPGSV,3,3,11,27,51,144,09,28,26,056,23,31,10,105,*4B

$GPGLL,4305.05602,N,07740.12499,W,234049.00,A,A*73

$GPRMC,234050.00,A,4305.05579,N,07740.12469,W,0.050,,301022,,,A*65

$GPVTG,,T,,M,0.050,N,0.093,K,A*2C

$GPGGA,234050.00,4305.05579,N,07740.12469,W,1,04,2.89,178.3,M,-35.0,M,,*6F

$GPGSA,A,3,16,04,09,26,,,,,,,,,5.94,2.89,5.19*0A

$GPGSV,3,1,11,03,01,214,,04,66,226,28,07,18,295,21,08,28,180,*7E

$GPGSV,3,2,11,09,48,296,20,16,70,043,31,18,06,060,,26,39,058,25*7A

$GPGSV,3,3,11,27,51,144,,28,26,056,23,31,10,105,*42

$GPGLL,4305.05579,N,07740.12469,W,234050.00,A,A*7B

$GPRMC,234051.00,A,4305.05544,N,07740.12432,W,0.139,,301022,,,A*6A

$GPVTG,,T,,M,0.139,N,0.258,K,A*27

$GPGGA,234051.00,4305.05544,N,07740.12432,W,1,04,2.89,179.2,M,-35.0,M,,*6E

$GPGSA,A,3,16,04,09,26,,,,,,,,,5.94,2.89,5.19*0A

$GPGSV,3,1,11,03,01,214,,04,66,226,29,07,18,295,21,08,28,180,*7F

$GPGSV,3,2,11,09,48,296,20,16,70,043,30,18,06,060,,26,39,058,25*7B

$GPGSV,3,3,11,27,51,144,19,28,26,056,23,31,10,105,*4A

$GPGLL,4305.05544,N,07740.12432,W,234051.00,A,A*7A

$GPRMC,234052.00,A,4305.05524,N,07740.12416,W,0.061,,301022,,,A*65

$GPVTG,,T,,M,0.061,N,0.114,K,A*20

$GPGGA,234052.00,4305.05524,N,07740.12416,W,1,04,2.89,179.7,M,-35.0,M,,*68

$GPGSA,A,3,16,04,09,26,,,,,,,,,5.93,2.89,5.18*0C

$GPGSV,3,1,11,03,01,214,,04,66,226,29,07,18,295,21,08,28,180,*7F

$GPGSV,3,2,11,09,48,296,20,16,70,043,30,18,06,060,,26,39,058,25*7B

$GPGSV,3,3,11,27,51,144,19,28,26,056,23,31,10,105,*4A

$GPGLL,4305.05524,N,07740.12416,W,234052.00,A,A*79

$GPRMC,234053.00,A,4305.05502,N,07740.12377,W,0.161,,301022,,,A*61

$GPVTG,,T,,M,0.161,N,0.297,K,A*29

$GPGGA,234053.00,4305.05502,N,07740.12377,W,1,04,2.89,179.8,M,-35.0,M,,*62

$GPGSA,A,3,16,04,09,26,,,,,,,,,5.93,2.89,5.18*0C

$GPGSV,3,1,11,03,01,214,,04,66,226,28,07,18,295,21,08,28,180,*7E

$GPGSV,3,2,11,09,48,296,21,16,70,043,30,18,06,060,,26,39,058,25*7A

$GPGSV,3,3,11,27,51,144,17,28,26,056,23,31,10,105,*44

$GPGLL,4305.05502,N,07740.12377,W,234053.00,A,A*7C

$GPRMC,234054.00,A,4305.05485,N,07740.12369,W,0.074,,301022,,,A*62

$GPVTG,,T,,M,0.074,N,0.137,K,A*25

$GPGGA,234054.00,4305.05485,N,07740.12369,W,1,04,2.89,179.7,M,-35.0,M,,*6B

$GPGSA,A,3,16,04,09,26,,,,,,,,,5.93,2.89,5.18*0C

$GPGSV,3,1,11,03,01,214,,04,66,226,28,07,18,295,21,08,28,180,*7E

$GPGSV,3,2,11,09,48,296,21,16,70,043,30,18,06,060,,26,39,058,25*7A

$GPGSV,3,3,11,27,51,144,15,28,26,056,23,31,10,105,*46

$GPGLL,4305.05485,N,07740.12369,W,234054.00,A,A*7A

$GPRMC,234055.00,A,4305.05554,N,07740.12432,W,0.412,,301022,,,A*63

$GPVTG,,T,,M,0.412,N,0.763,K,A*26

$GPGGA,234055.00,4305.05554,N,07740.12432,W,1,05,1.69,180.1,M,-35.0,M,,*62

$GPGSA,A,3,16,04,27,09,26,,,,,,,,4.77,1.69,4.46*05

$GPGSV,3,1,11,03,01,214,,04,66,226,28,07,18,295,21,08,28,180,*7E

$GPGSV,3,2,11,09,48,296,21,16,70,043,31,18,06,060,,26,39,058,25*7B

$GPGSV,3,3,11,27,51,144,14,28,26,056,23,31,10,105,*47

$GPGLL,4305.05554,N,07740.12432,W,234055.00,A,A*7F

$GPRMC,234056.00,A,4305.05619,N,07740.12490,W,1.243,,301022,,,A*61

$GPVTG,,T,,M,1.243,N,2.302,K,A*24

$GPGGA,234056.00,4305.05619,N,07740.12490,W,1,05,1.69,180.8,M,-35.0,M,,*6A

$GPGSA,A,3,16,04,27,09,26,,,,,,,,4.77,1.69,4.46*05

$GPGSV,3,1,11,03,01,214,,04,66,226,27,07,18,295,21,08,28,180,*71

$GPGSV,3,2,11,09,48,296,21,16,70,043,30,18,06,060,,26,39,058,25*7A

$GPGSV,3,3,11,27,51,144,13,28,26,056,23,31,10,105,*40

$GPGLL,4305.05619,N,07740.12490,W,234056.00,A,A*7E

$GPRMC,234057.00,A,4305.05714,N,07740.12571,W,2.174,319.07,301022,,,A*74

$GPVTG,319.07,T,,M,2.174,N,4.026,K,A*31

$GPGGA,234057.00,4305.05714,N,07740.12571,W,1,05,1.69,181.8,M,-35.0,M,,*68

$GPGSA,A,3,16,04,27,09,26,,,,,,,,4.77,1.69,4.46*05

$GPGSV,3,1,11,03,01,214,,04,66,226,27,07,18,295,21,08,28,180,*71

$GPGSV,3,2,11,09,48,296,21,16,70,043,30,18,06,060,,26,39,058,25*7A

$GPGSV,3,3,11,27,51,144,12,28,26,056,23,31,10,105,*41

$GPGLL,4305.05714,N,07740.12571,W,234057.00,A,A*7D

$GPRMC,234058.00,A,4305.05726,N,07740.12568,W,0.645,,301022,,,A*67

$GPVTG,,T,,M,0.645,N,1.195,K,A*28

$GPGGA,234058.00,4305.05726,N,07740.12568,W,1,05,1.69,182.5,M,-35.0,M,,*60

$GPGSA,A,3,16,04,27,09,26,,,,,,,,4.77,1.69,4.46*05

$GPGSV,3,1,11,03,01,214,,04,66,226,27,07,18,295,21,08,28,180,19*79

$GPGSV,3,2,11,09,48,296,22,16,70,043,30,18,06,060,,26,39,058,25*79

$GPGSV,3,3,11,27,51,144,11,28,26,056,23,31,10,105,*42

$GPGLL,4305.05726,N,07740.12568,W,234058.00,A,A*7B

$GPRMC,234059.00,A,4305.05728,N,07740.12567,W,1.122,,301022,,,A*60

$GPVTG,,T,,M,1.122,N,2.077,K,A*21

$GPGGA,234059.00,4305.05728,N,07740.12567,W,1,04,2.88,182.3,M,-35.0,M,,*6B

$GPGSA,A,3,16,04,09,26,,,,,,,,,5.93,2.88,5.18*0D

$GPGSV,3,1,11,03,01,214,,04,66,226,27,07,18,295,21,08,28,180,18*78

$GPGSV,3,2,11,09,48,296,22,16,70,043,30,18,06,060,,26,39,058,25*79

$GPGSV,3,3,11,27,51,144,09,28,26,056,23,31,10,105,*4B

$GPGLL,4305.05728,N,07740.12567,W,234059.00,A,A*7B

$GPRMC,234100.00,A,4305.05688,N,07740.12514,W,0.402,,301022,,,A*64

$GPVTG,,T,,M,0.402,N,0.744,K,A*22

$GPGGA,234100.00,4305.05688,N,07740.12514,W,1,04,2.88,182.5,M,-35.0,M,,*6F

$GPGSA,A,3,16,04,09,26,,,,,,,,,5.92,2.88,5.18*0C

$GPGSV,3,1,11,03,01,214,,04,66,226,27,07,18,295,21,08,28,180,18*78

$GPGSV,3,2,11,09,48,296,22,16,70,043,30,18,06,060,,26,39,058,25*79

$GPGSV,3,3,11,27,51,144,08,28,26,056,22,31,10,105,*4B

$GPGLL,4305.05688,N,07740.12514,W,234100.00,A,A*79

$GPRMC,234101.00,A,4305.05641,N,07740.12469,W,0.182,,301022,,,A*66

$GPVTG,,T,,M,0.182,N,0.338,K,A*20

$GPGGA,234101.00,4305.05641,N,07740.12469,W,1,04,2.88,182.3,M,-35.0,M,,*66

$GPGSA,A,3,16,04,09,26,,,,,,,,,5.92,2.88,5.18*0C

$GPGSV,3,1,11,03,01,214,,04,66,226,29,07,18,295,21,08,28,180,15*7B

$GPGSV,3,2,11,09,48,296,22,16,70,043,31,18,06,060,,26,39,058,25*78

$GPGSV,3,3,11,27,51,144,09,28,26,056,23,31,10,105,*4B

$GPGLL,4305.05641,N,07740.12469,W,234101.00,A,A*76

$GPRMC,234102.00,A,4305.05629,N,07740.12459,W,0.595,,301022,,,A*6A

$GPVTG,,T,,M,0.595,N,1.102,K,A*28

$GPGGA,234102.00,4305.05629,N,07740.12459,W,1,05,1.69,182.1,M,-35.0,M,,*67

$GPGSA,A,3,16,04,27,09,26,,,,,,,,4.77,1.69,4.46*05

$GPGSV,3,1,11,03,01,214,,04,66,226,29,07,18,295,20,08,28,180,15*7A

$GPGSV,3,2,11,09,48,296,23,16,70,043,30,18,06,060,,26,39,058,25*78

$GPGSV,3,3,11,27,51,144,10,28,26,056,23,31,10,105,*43

$GPGLL,4305.05629,N,07740.12459,W,234102.00,A,A*78

$GPRMC,234103.00,A,4305.05635,N,07740.12430,W,0.289,,301022,,,A*63

$GPVTG,,T,,M,0.289,N,0.535,K,A*23

$GPGGA,234103.00,4305.05635,N,07740.12430,W,1,05,1.69,182.6,M,-35.0,M,,*63

$GPGSA,A,3,16,04,27,09,26,,,,,,,,4.77,1.69,4.46*05

$GPGSV,3,1,11,03,01,214,,04,66,226,29,07,18,295,19,08,28,180,15*70

$GPGSV,3,2,11,09,48,296,24,16,70,043,31,18,06,060,,26,39,058,25*7E

$GPGSV,3,3,11,27,51,144,10,28,26,056,23,31,10,105,*43

$GPGLL,4305.05635,N,07740.12430,W,234103.00,A,A*7B

$GPRMC,234104.00,A,4305.05601,N,07740.12364,W,0.368,,301022,,,A*6B

$GPVTG,,T,,M,0.368,N,0.682,K,A*22

$GPGGA,234104.00,4305.05601,N,07740.12364,W,1,05,1.69,183.6,M,-35.0,M,,*64

$GPGSA,A,3,16,04,27,09,26,,,,,,,,4.77,1.69,4.46*05

$GPGSV,3,1,11,03,01,214,,04,66,226,28,07,18,295,18,08,28,180,15*70

$GPGSV,3,2,11,09,48,296,24,16,70,043,31,18,06,060,,26,39,058,24*7F

$GPGSV,3,3,11,27,51,144,10,28,26,056,23,31,10,105,*43

$GPGLL,4305.05601,N,07740.12364,W,234104.00,A,A*7D

$GPRMC,234105.00,A,4305.05608,N,07740.12363,W,0.049,,301022,,,A*64

$GPVTG,,T,,M,0.049,N,0.092,K,A*25

$GPGGA,234105.00,4305.05608,N,07740.12363,W,1,05,1.69,183.5,M,-35.0,M,,*68

$GPGSA,A,3,16,04,27,09,26,,,,,,,,4.78,1.69,4.47*0B

$GPGSV,3,1,11,03,01,214,,04,66,226,28,07,18,295,18,08,28,180,15*70

$GPGSV,3,2,11,09,48,296,25,16,70,043,32,18,06,060,,26,39,058,24*7D

$GPGSV,3,3,11,27,51,144,10,28,26,056,23,31,10,105,*43

$GPGLL,4305.05608,N,07740.12363,W,234105.00,A,A*72

$GPRMC,234106.00,A,4305.05587,N,07740.12328,W,0.155,,301022,,,A*60

$GPVTG,,T,,M,0.155,N,0.286,K,A*2E

$GPGGA,234106.00,4305.05587,N,07740.12328,W,1,05,1.69,183.9,M,-35.0,M,,*6C

$GPGSA,A,3,16,04,27,09,26,,,,,,,,4.78,1.69,4.47*0B

$GPGSV,3,1,11,03,01,214,,04,66,226,28,07,18,295,19,08,28,180,14*70

$GPGSV,3,2,11,09,48,296,25,16,70,043,32,18,06,060,,26,39,058,24*7D

$GPGSV,3,3,11,27,51,144,10,28,26,056,23,31,10,105,*43

$GPGLL,4305.05587,N,07740.12328,W,234106.00,A,A*7A

$GPRMC,234107.00,A,4305.05587,N,07740.12317,W,0.062,,301022,,,A*68

$GPVTG,,T,,M,0.062,N,0.115,K,A*22

$GPGGA,234107.00,4305.05587,N,07740.12317,W,1,05,1.69,184.0,M,-35.0,M,,*6F

$GPGSA,A,3,16,04,27,09,26,,,,,,,,4.78,1.69,4.47*0B

$GPGSV,3,1,11,03,01,214,,04,66,226,28,07,18,295,19,08,28,180,15*71

$GPGSV,3,2,11,09,48,296,25,16,70,043,31,18,06,060,,26,39,058,25*7F

$GPGSV,3,3,11,27,51,144,10,28,26,056,24,31,10,105,*44

$GPGLL,4305.05587,N,07740.12317,W,234107.00,A,A*77

$GPRMC,234108.00,A,4305.05562,N,07740.12278,W,0.145,,301022,,,A*60

$GPVTG,,T,,M,0.145,N,0.268,K,A*2F

$GPGGA,234108.00,4305.05562,N,07740.12278,W,1,04,2.87,184.4,M,-35.0,M,,*65

$GPGSA,A,3,16,04,09,26,,,,,,,,,5.91,2.87,5.17*0F

$GPGSV,3,1,11,03,01,214,,04,66,226,29,07,18,295,18,08,28,180,16*72

$GPGSV,3,2,11,09,48,296,25,16,70,043,31,18,06,060,,26,39,058,25*7F

$GPGSV,3,3,11,27,51,144,,28,26,056,24,31,10,105,*45

$GPGLL,4305.05562,N,07740.12278,W,234108.00,A,A*7B

